[{"id":0,"name":"dungle","districtId":"","rating":0.0,"location":"Cong vien the thao - Tennis 1","address":"","views":0,"image":"","hours":"18h:00","days":"2024.05.31","hotline":"0944329955","map":"ngochan0511Q&"},{"id":1,"name":"dungle","districtId":"","rating":0.0,"location":"Cong vien the thao - Tennis 1","address":"","views":1,"image":"","hours":"16h:00","days":"2024.05.31","hotline":"0987199038","map":"Tinhthuy2018@&"},{"id":2,"name":"dungle","districtId":"","rating":0.0,"location":"Cong vien the thao - Tennis 2","address":"","views":1,"image":"","hours":"18h:00","days":"2024.05.31","hotline":"0919909177","map":"Abcd123456!"},{"id":3,"name":"dungle","districtId":"","rating":0.0,"location":"Cong vien the thao - Tennis 2","address":"","views":1,"image":"","hours":"16h:00","days":"2024.05.31","hotline":"0985460467","map":"Ha12345678?"},{"id":4,"name":"dungle","districtId":"","rating":0.0,"location":"S4 - San Tennis","address":"","views":1,"image":"","hours":"18h:00","days":"2024.05.31","hotline":"0977993452","map":"@Hm130315"},{"id":5,"name":"dungle","districtId":"","rating":0.0,"location":"Đường Hải Đăng 8 - Sân Tennis 05","address":"","views":0,"image":"","hours":"18h:00","days":"2024.05.31","hotline":"0976299173","map":"Gialam2020&"},{"id":6,"name":"dungle","districtId":"","rating":0.0,"location":"Cong vien the thao - Tennis 3","address":"","views":1,"image":"","hours":"18h:00","days":"2024.05.31","hotline":"0834705874","map":"Hamy908315@"},{"id":7,"name":"dungle","districtId":"","rating":0.0,"location":"Cong vien the thao - Tennis 3","address":"","views":1,"image":"","hours":"16h:00","days":"2024.05.31","hotline":"0974488181","map":"Hoangkb1996@"},{"id":8,"name":"dungle","districtId":"","rating":0.0,"location":"Cong vien the thao - Tennis 4","address":"","views":1,"image":"","hours":"18h:00","days":"2024.05.31","hotline":"0912699032","map":"Vln0379#"},{"id":9,"name":"dungle","districtId":"","rating":0.0,"location":"Cong vien the thao - Tennis 5","address":"","views":1,"image":"","hours":"18h:00","days":"2024.05.31","hotline":"0901753828","map":"Dungtran8998@#"},{"id":10,"name":"nhich","districtId":"","rating":0.0,"location":"Cong vien the thao - Tennis 6","address":"","views":1,"image":"","hours":"18h:00","days":"2024.05.31","hotline":"0975528128","map":"Lien12345678@"},{"id":11,"name":"dungle","districtId":"","rating":0.0,"location":"Cong vien the thao - Tennis 3","address":"","views":1,"image":"","hours":"6h:00","days":"2024.05.31","hotline":"0912860283","map":"Tuythao83@"},{"id":12,"name":"dungle","districtId":"","rating":0.0,"location":"Cong vien the thao - Tennis 2","address":"","views":0,"image":"","hours":"6h:00","days":"2024.05.31","hotline":"0971551577","map":"Abc12345@"},{"id":13,"name":"dungle","districtId":"","rating":0.0,"location":"Cong vien the thao - Tennis 6","address":"","views":1,"image":"","hours":"6h:00","days":"2024.05.31","hotline":"0913270887","map":"Hai1987@"},{"id":14,"name":"9123","districtId":"","rating":0.0,"location":"S2 - San tennis 01","address":"","views":0,"image":"","hours":"18h:00","days":"2024.05.31","hotline":"0967466021","map":"Abc@1234"},{"id":15,"name":"9123","districtId":"","rating":0.0,"location":"S2 - San tennis 01","address":"","views":0,"image":"","hours":"16h:00","days":"2024.05.31","hotline":"0982869982","map":"Abc@1234"},{"id":16,"name":"3219","districtId":"","rating":0.0,"location":"S2 - San tennis 02","address":"","views":1,"image":"","hours":"18h:00","days":"2024.05.31","hotline":"0989897779","map":"!Ha998877"},{"id":17,"name":"3219","districtId":"","rating":0.0,"location":"S2 - San tennis 02","address":"","views":1,"image":"","hours":"16h:00","days":"2024.05.31","hotline":"0902159489","map":"Thanhcong12@"},{"id":18,"name":"bochuongmyyy","districtId":"","rating":0.0,"location":"San tennis 02- MIK","address":"","views":1,"image":"","hours":"16h:00","days":"2024.05.31","hotline":"0374291077","map":"Vanjinka12!"},{"id":19,"name":"bochuongmyyy","districtId":"","rating":0.0,"location":"San tennis 02- MIK","address":"","views":1,"image":"","hours":"18h:00","days":"2024.05.31","hotline":"0339067548","map":"Kieungoclan0810@&"},{"id":20,"name":"bochuongmyyy","districtId":"","rating":0.0,"location":"San tennis 02- MIK","address":"","views":1,"image":"","hours":"20h:00","days":"2024.05.31","hotline":"0973876427","map":"Anhemonsang1@"},{"id":21,"name":"bochuongmyyy","districtId":"","rating":0.0,"location":"GS- Tennis 1","address":"","views":1,"image":"","hours":"18h:00","days":"2024.05.31","hotline":"0966339988","map":"0803Phuong&"},{"id":22,"name":"bochuongmyyy","districtId":"","rating":0.0,"location":"San tennis 01- MIK","address":"","views":1,"image":"","hours":"18h:00","days":"2024.05.31","hotline":"0983633555","map":"Ly@123456"},{"id":23,"name":"bochuongmyyy","districtId":"","rating":0.0,"location":"GS- Tennis 2","address":"","views":1,"image":"","hours":"6h:00","days":"2024.05.31","hotline":"0988397448","map":"Zeke@1010"},{"id":24,"name":"0797","districtId":"","rating":0.0,"location":"S1 - San tennis 01","address":"","views":1,"image":"","hours":"18h:00","days":"2024.05.31","hotline":"0983586589","map":"123Lcc1111$"},{"id":25,"name":"0797","districtId":"","rating":0.0,"location":"S1 - San tennis 02","address":"","views":1,"image":"","hours":"18h:00","days":"2024.05.31","hotline":"0382983621","map":"Tuan@0704"},{"id":26,"name":"0797","districtId":"","rating":0.0,"location":"GS- Tennis 2","address":"","views":1,"image":"","hours":"18h:00","days":"2024.05.31","hotline":"0979696828","map":"Viethung@14"},{"id":27,"name":"dungle","districtId":"","rating":0.0,"location":"Cong vien the thao - Tennis 1","address":"","views":1,"image":"","hours":"20h:00","days":"2024.05.31","hotline":"0932313481","map":"Chung090908@"},{"id":0,"name":"dungle","districtId":"","rating":0.0,"location":"Cong vien the thao - Tennis 1","address":"","views":1,"image":"","hours":"18h:00","days":"2024.05.30","hotline":"0919909177","map":"Abcd123456!"},{"id":1,"name":"dungle","districtId":"","rating":0.0,"location":"Cong vien the thao - Tennis 1","address":"","views":1,"image":"","hours":"16h:00","days":"2024.05.30","hotline":"0944329955","map":"ngochan0511Q&"},{"id":2,"name":"dungle","districtId":"","rating":0.0,"location":"Cong vien the thao - Tennis 2","address":"","views":1,"image":"","hours":"18h:00","days":"2024.05.30","hotline":"0985460467","map":"Ha12345678?"},{"id":3,"name":"dungle","districtId":"","rating":0.0,"location":"Cong vien the thao - Tennis 2","address":"","views":0,"image":"","hours":"16h:00","days":"2024.05.30","hotline":"0987199038","map":"Tinhthuy2018@&"},{"id":4,"name":"dungle","districtId":"","rating":0.0,"location":"S4 - San Tennis","address":"","views":1,"image":"","hours":"18h:00","days":"2024.05.30","hotline":"0977993452","map":"@Hm130315"},{"id":5,"name":"dungle","districtId":"","rating":0.0,"location":"Đường Hải Đăng 8 - Sân Tennis 05","address":"","views":1,"image":"","hours":"18h:00","days":"2024.05.30","hotline":"0976299173","map":"Gialam2020&"},{"id":6,"name":"dungle","districtId":"","rating":0.0,"location":"Cong vien the thao - Tennis 3","address":"","views":1,"image":"","hours":"18h:00","days":"2024.05.30","hotline":"0834705874","map":"Hamy908315@"},{"id":7,"name":"dungle","districtId":"","rating":0.0,"location":"Cong vien the thao - Tennis 3","address":"","views":1,"image":"","hours":"16h:00","days":"2024.05.30","hotline":"0974488181","map":"Hoangkb1996@"},{"id":8,"name":"dungle","districtId":"","rating":0.0,"location":"Cong vien the thao - Tennis 4","address":"","views":1,"image":"","hours":"18h:00","days":"2024.05.30","hotline":"0912699032","map":"Vln0379#"},{"id":9,"name":"dungle","districtId":"","rating":0.0,"location":"Cong vien the thao - Tennis 5","address":"","views":1,"image":"","hours":"18h:00","days":"2024.05.30","hotline":"0901753828","map":"Dungtran8998@#"},{"id":10,"name":"nhich","districtId":"","rating":0.0,"location":"Cong vien the thao - Tennis 6","address":"","views":1,"image":"","hours":"18h:00","days":"2024.05.30","hotline":"0975528128","map":"Lien12345678@"},{"id":11,"name":"dungle","districtId":"","rating":0.0,"location":"Cong vien the thao - Tennis 3","address":"","views":1,"image":"","hours":"6h:00","days":"2024.05.30","hotline":"0912860283","map":"Tuythao83@"},{"id":12,"name":"dungle","districtId":"","rating":0.0,"location":"Cong vien the thao - Tennis 2","address":"","views":1,"image":"","hours":"6h:00","days":"2024.05.30","hotline":"0971551577","map":"Abc12345@"},{"id":13,"name":"dungle","districtId":"","rating":0.0,"location":"Cong vien the thao - Tennis 6","address":"","views":1,"image":"","hours":"6h:00","days":"2024.05.30","hotline":"0913270887","map":"Hai1987@"},{"id":14,"name":"9123","districtId":"","rating":0.0,"location":"S2 - San tennis 01","address":"","views":1,"image":"","hours":"18h:00","days":"2024.05.30","hotline":"0982869982","map":"Abc@1234"},{"id":15,"name":"9123","districtId":"","rating":0.0,"location":"S2 - San tennis 01","address":"","views":1,"image":"","hours":"16h:00","days":"2024.05.30","hotline":"0967466021","map":"Abc@1234"},{"id":16,"name":"3219","districtId":"","rating":0.0,"location":"S2 - San tennis 02","address":"","views":1,"image":"","hours":"18h:00","days":"2024.05.30","hotline":"0989897779","map":"!Ha998877"},{"id":17,"name":"3219","districtId":"","rating":0.0,"location":"S2 - San tennis 02","address":"","views":1,"image":"","hours":"16h:00","days":"2024.05.30","hotline":"0902159489","map":"Thanhcong12@"},{"id":18,"name":"bochuongmyyy","districtId":"","rating":0.0,"location":"San tennis 02- MIK","address":"","views":1,"image":"","hours":"16h:00","days":"2024.05.30","hotline":"0374291077","map":"Vanjinka12!"},{"id":19,"name":"bochuongmyyy","districtId":"","rating":0.0,"location":"San tennis 02- MIK","address":"","views":1,"image":"","hours":"18h:00","days":"2024.05.30","hotline":"0966339988","map":"0803Phuong&"},{"id":20,"name":"bochuongmyyy","districtId":"","rating":0.0,"location":"San tennis 02- MIK","address":"","views":1,"image":"","hours":"20h:00","days":"2024.05.30","hotline":"0973876427","map":"Anhemonsang1@"},{"id":21,"name":"bochuongmyyy","districtId":"","rating":0.0,"location":"GS- Tennis 2","address":"","views":1,"image":"","hours":"18h:00","days":"2024.05.30","hotline":"0339067548","map":"Kieungoclan0810@&"},{"id":22,"name":"bochuongmyyy","districtId":"","rating":0.0,"location":"San tennis 01- MIK","address":"","views":1,"image":"","hours":"18h:00","days":"2024.05.30","hotline":"0983633555","map":"Ly@123456"},{"id":23,"name":"bochuongmyyy","districtId":"","rating":0.0,"location":"GS- Tennis 2","address":"","views":1,"image":"","hours":"6h:00","days":"2024.05.30","hotline":"0988397448","map":"Zeke@1010"},{"id":24,"name":"0797","districtId":"","rating":0.0,"location":"S1 - San tennis 02","address":"","views":1,"image":"","hours":"18h:00","days":"2024.05.30","hotline":"0962984389","map":"Ph@nvu87"},{"id":25,"name":"0797","districtId":"","rating":0.0,"location":"S1 - San tennis 01","address":"","views":1,"image":"","hours":"18h:00","days":"2024.05.30","hotline":"0363994913","map":"Minhtam84@"},{"id":26,"name":"0797","districtId":"","rating":0.0,"location":"GS- Tennis 1","address":"","views":1,"image":"","hours":"18h:00","days":"2024.05.30","hotline":"0979696828","map":"Viethung@14"},{"id":27,"name":"dungle","districtId":"","rating":0.0,"location":"Cong vien the thao - Tennis 1","address":"","views":1,"image":"","hours":"20h:00","days":"2024.05.30","hotline":"0932313481","map":"Chung090908@"}]
